{"type":"FeatureCollection","features":[{"type":"Feature","id":"airnav_branch.36","geometry":{"type":"Point","coordinates":[138.951389,-4.0975]},"geometry_name":"geom","properties":{"id":36,"name":"Wamena","status":"Green","remarks":"DEKAI = ARO(100%)","ats_unit":"TWR","acc":"-","app":"-","twr":"88%","aro":"100%","teknik":"67%","pia":"-","twr_app":"-"}},{"type":"Feature","id":"airnav_branch.7","geometry":{"type":"Point","coordinates":[104.526944,0.918889]},"geometry_name":"geom","properties":{"id":7,"name":"Tanjung Pinang","status":"Green","remarks":"Unit Singkep = ARO (100%)\r\nUnit Tj Balai Karimun = ARO (100%)\r\nUnit Anambas Letung = ARO (100%)","ats_unit":"TWR, APP SUR","acc":"-","app":"96%","twr":"100%","aro":"100%","teknik":"94%","pia":"-","twr_app":"-"}},{"type":"Feature","id":"airnav_branch.37","geometry":{"type":"Point","coordinates":[135.497222,-3.368056]},"geometry_name":"geom","properties":{"id":37,"name":"Nabire","status":"Green","remarks":"UNIT ILAGA =  ARO (100%), TEK (100%)\r\nUNIT BILORAI =  ARO (100%), TEK(0%)\r\nUNIT MULIAK =  ARO (100%)\r\nUNIT ENAROTALI=  ARO (100%)\r\nUNIT WAGHETE=  ARO (100%)\r\nUNIT MOANAMANI\r\nUNIT ILU\r\nUNIT SINAK\r\nUNIT ABOYAGA\r\nUNIT DUMA\r\nUNIT OBANO, INTAN JAYA\r\nUNIT OBANO, PANIAI\r\nUNIT BOTAWA\r\nUNIT BEOGA\r\nUNIT BILAI\r\nUNIT PUNCAK JAYA\r\n","ats_unit":"TWR","acc":"-","app":"-","twr":"85,71%","aro":"100%","teknik":"87%","pia":"-","twr_app":"-"}},{"type":"Feature","id":"airnav_branch.31","geometry":{"type":"Point","coordinates":[113.945278,-2.22527778]},"geometry_name":"geom","properties":{"id":31,"name":"Palangkaraya","status":"Green","remarks":"Muara Teweh = ARO (100%)","ats_unit":"TWR","acc":"-","app":"-","twr":"-","aro":"80%","teknik":"94%","pia":"-","twr_app":"100%"}},{"type":"Feature","id":"airnav_branch.12","geometry":{"type":"Point","coordinates":[115.169167,-8.7475]},"geometry_name":"geom","properties":{"id":12,"name":"Denpasar","status":"Green","remarks":"Labuan Bajo = TWR (100%), ARO (50%), TEK (100%)\r\nUnit Waingapu = TWR (80%), TEK (0%)\r\nUnit Tambolaka = ARO (100%), TEK (100%)","ats_unit":"TWR, APP SUR, FIS, ACS\r\n","acc":"-","app":"100%","twr":"100%","aro":"100%","teknik":"98%","pia":"100%","twr_app":"-"}},{"type":"Feature","id":"airnav_branch.20","geometry":{"type":"Point","coordinates":[110.377222,-6.976389]},"geometry_name":"geom","properties":{"id":20,"name":"Semarang","status":"Green","remarks":"Unit Karimun Jawa = ARO(100%), TEK(100%)","ats_unit":"TWR, APP PROC","acc":"-","app":"80%","twr":"95%","aro":"100%","teknik":"94%","pia":"-","twr_app":"-"}},{"type":"Feature","id":"airnav_branch.6","geometry":{"type":"Point","coordinates":[95.42,5.516944]},"geometry_name":"geom","properties":{"id":6,"name":"Banda Aceh","status":"Green","remarks":"Unit Sabang =  ARO (100%), TEK (0%)\r\nUnit Meulaboh = ARO (100%), TEK (100%)\r\nUnit Takengon = ARO (100%), TEK (0%)\r\nUnit Lhokseumawe = ARO (100%)\r\nUnit Tapaktuan = ARO (100%)\r\nUnit Sinabang = ARO (100%), TEK (0%)","ats_unit":"TWR/APP PROC COM","acc":"-","app":"-","twr":"-","aro":"100%","teknik":"100%","pia":"-","twr_app":"100%"}},{"type":"Feature","id":"airnav_branch.17","geometry":{"type":"Point","coordinates":[112.78,-7.383611]},"geometry_name":"geom","properties":{"id":17,"name":"Surabaya","status":"Green","remarks":"Banyuwangi = TWR (100%), ARO (100%), TEK (100%)\r\nSumenep = TWR (100%), ARO (100%), TEK (100%)\r\nMalang = TWR (90%), ARO (100%)","ats_unit":"TWR, APP SUR, FIS, ACS","acc":"-","app":"84%","twr":"94%","aro":"82%","teknik":"94%","pia":"100%","twr_app":"-"}},{"type":"Feature","id":"airnav_branch.19","geometry":{"type":"Point","coordinates":[110.750556,-7.513611]},"geometry_name":"geom","properties":{"id":19,"name":"Solo","status":"Green","remarks":"","ats_unit":"TWR/APP PROC COM","acc":"-","app":"-","twr":"-","aro":"75%","teknik":"100%","pia":"-","twr_app":"91%"}},{"type":"Feature","id":"airnav_branch.1","geometry":{"type":"Point","coordinates":[104.7,-2.900278]},"geometry_name":"geom","properties":{"id":1,"name":"Palembang","status":"Green","remarks":"Lubuk Linggau = ARO (100%) , TEK (50%)\r\nPagar Alam = ARO (100%), TEK (0%)\r\nPekon Serai Krui = ......","ats_unit":"TWR, APP SUR","acc":"-","app":"97%","twr":"97%","aro":"100%","teknik":"100%","pia":"100%","twr_app":"-"}},{"type":"Feature","id":"airnav_branch.22","geometry":{"type":"Point","coordinates":[106.886389,-6.2675]},"geometry_name":"geom","properties":{"id":22,"name":"Halim P.K.","status":"Green","remarks":"Curug = TWR (88%), ARO (100%) TEK(100%)","ats_unit":"TWR","acc":"-","app":"-","twr":"77%","aro":"100%","teknik":"100%","pia":"-","twr_app":"-"}},{"type":"Feature","id":"airnav_branch.14","geometry":{"type":"Point","coordinates":[116.276667,-8.7575]},"geometry_name":"geom","properties":{"id":14,"name":"Lombok","status":"Green","remarks":"Bima = TWR(100%), ARO(100%), TEKNIK(100%)\r\nSumbawa = TWR(100%), ARO(100%), TEKNIK(100%)","ats_unit":"TWR/APP PROC COM","acc":"-","app":"-","twr":"-","aro":"100%","teknik":"100%","pia":"-","twr_app":"100%"}},{"type":"Feature","id":"airnav_branch.2","geometry":{"type":"Point","coordinates":[100.286389,-0.788333]},"geometry_name":"geom","properties":{"id":2,"name":"Padang","status":"Green","remarks":"ROKOT = ARO(100%)\r\nPASAMAN BARAT = ARO(100%)","ats_unit":"TWR, APP PROC","acc":"-","app":"-","twr":"100%","aro":"75%","teknik":"94%","pia":"-","twr_app":"-"}},{"type":"Feature","id":"airnav_branch.5","geometry":{"type":"Point","coordinates":[101.445278,0.462222]},"geometry_name":"geom","properties":{"id":5,"name":"Pekanbaru","status":"Green","remarks":"","ats_unit":"TWR, APP SUR","acc":"-","app":"92%","twr":"92%","aro":"100%","teknik":"96%","pia":"-","twr_app":"-"}},{"type":"Feature","id":"airnav_branch.3","geometry":{"type":"Point","coordinates":[98.885278,3.642222]},"geometry_name":"geom","properties":{"id":3,"name":"Medan","status":"Green","remarks":"Unit Gunung Sitoli = TWR(100%) ARO(50%) TEK(100%)\r\nUnit Siborong-borong = TWR(100%) APP(0%) ARO(100%) TEK(100%)\r\nUnit Sibolga = ARO(67%) TEK(100%)\r\nUnit Aek Godang = ARO(67%) TEK(50%)\r\nUnit Lasondre = ARO(67%)","ats_unit":"TWR, APP SUR","acc":"-","app":"88%","twr":"91%","aro":"100%","teknik":"82%","pia":"100%","twr_app":"-"}},{"type":"Feature","id":"airnav_branch.39","geometry":{"type":"Point","coordinates":[106.643817,-6.153671]},"geometry_name":"geom","properties":{"id":39,"name":"PIA","status":"Green","remarks":"PUSAT (100%), \r\nJKT (100%), \r\nNOF (100%), \r\nMKS (90.5%)\r\nDPS (100%), \r\nSUB (94.7%), \r\nMDN (94%)\r\nBPN\t(100%)\r\nPLB\t(100%)\r\nJPA\t(100%)\r\nMDC (100%)\r\nSOQ (86%)","ats_unit":null,"acc":"-","app":"-","twr":"-","aro":"-","teknik":"-","pia":"-","twr_app":"-"}},{"type":"Feature","id":"airnav_branch.8","geometry":{"type":"Point","coordinates":[128.089444,-3.7075]},"geometry_name":"geom","properties":{"id":8,"name":"Ambon","status":"Green","remarks":"","ats_unit":"TWR, APP PROC","acc":"-","app":"84,61%","twr":"85,18%","aro":"87,50%","teknik":"86,20%","pia":"-","twr_app":""}},{"type":"Feature","id":"airnav_branch.24","geometry":{"type":"Point","coordinates":[109.403611,-0.145556]},"geometry_name":"geom","properties":{"id":24,"name":"Pontianak","status":"Green","remarks":"Unit Ketapang = TWR (100%), ARO (100%), TEK (100%)\r\nUnit Sintang = ARO (100%), TEK (100%)\r\nUnit Putu Sibau = ARO (100%), TEK (100%)","ats_unit":"TWR, APP SUR, FIS","acc":"-","app":"96%","twr":"89%","aro":"80%","teknik":"97%","pia":"-","twr_app":"-"}},{"type":"Feature","id":"airnav_branch.9","geometry":{"type":"Point","coordinates":[124.925,1.545556]},"geometry_name":"geom","properties":{"id":9,"name":"Manado","status":"Green","remarks":"BULI = ARO(100%) TEK(100%)\r\nGALELA = TEK(100%)\r\nKAO = ARO(100%) TEK(100%)\r\nLABUHA = ARO(50%) TEK(100%)\r\nMOROTAI = ARO(25%) TEK(100%)\r\nMELONGOANE = ARO(100%) TEK(100%)\r\nNAHA = ARO(100%) TEK(100%)\r\nSANANA = ARO(67%) TEK(0%)\r\n","ats_unit":"TWR, APP PROC","acc":"-","app":"-","twr":"-","aro":"88%","teknik":"96%","pia":"100%","twr_app":"100%"}},{"type":"Feature","id":"airnav_branch.27","geometry":{"type":"Point","coordinates":[106.138056,-2.1625]},"geometry_name":"geom","properties":{"id":27,"name":"Pangkal Pinang","status":"Green","remarks":"Tanjung Pandan = TWR (88%), ARO (100%), TEK (75%)","ats_unit":"TWR, APP PROC","acc":"-","app":"76.92%","twr":"100%","aro":"100%","teknik":"92%","pia":"-","twr_app":"-"}},{"type":"Feature","id":"airnav_branch.25","geometry":{"type":"Point","coordinates":[103.643056,-1.63555556]},"geometry_name":"geom","properties":{"id":25,"name":"Jambi","status":"Green","remarks":"KERINCI = ARO(100%)\r\nMUKO-MUKO =  ARO(100%)\r\nMUARA BUNGO =  ARO(100%)\r\nENGGANO =  ARO(100%)","ats_unit":"TWR/APP PROC COM","acc":"-","app":"-","twr":"-","aro":"100%","teknik":"","pia":"-","twr_app":"100%"}},{"type":"Feature","id":"airnav_branch.34","geometry":{"type":"Point","coordinates":[114.752778,-3.43972222]},"geometry_name":"geom","properties":{"id":34,"name":"Banjarmasin","status":"Green","remarks":"Pangkalan Bun = TWR (88%), ARO (75%), TEK (80%)\r\nSAMPIT = TWR (100%), ARO (100%), TEK (80%)\r\nKota Baru = ARO (60%), Tek (100%)","ats_unit":"TWR, APP SUR, FIS","acc":"-","app":"90%","twr":"90%","aro":"90%","teknik":"90%","pia":"-","twr_app":"-"}},{"type":"Feature","id":"airnav_branch.10","geometry":{"type":"Point","coordinates":[116.893889,-1.2675]},"geometry_name":"geom","properties":{"id":10,"name":"Balikpapan","status":"Green","remarks":"SAMARINDA = TWR(100%) TEK(100%)\r\nBERAU = TWR(100%) ARO(0%) TEK(100%)\r\nMELAK = AFIS(100%)\r\nDATAH DAWAI = AFIS(100%)\r\nDERAWAN = AFIS(100%)","ats_unit":"TWR, APP SUR, FIS","acc":"-","app":"100%","twr":"82,30%","aro":"100%","teknik":"91%","pia":"100%","twr_app":"-"}},{"type":"Feature","id":"airnav_branch.32","geometry":{"type":"Point","coordinates":[122.408611,-4.08416667]},"geometry_name":"geom","properties":{"id":32,"name":"Kendari","status":"Green","remarks":"Unit Bau-bau = ARO (75%), TEK (0%)\r\nUnit Wakatobi = ARO (67%), TEK (0%)\r\nUnit Kolaka = ARO (100%), TEK (0%)\r\nUnit Sugimanuru = ARO (100%), TEK (0%)\r\nUnit Morowali = ARO (50%), TEK (0%)","ats_unit":"TWR, APP PROC","acc":"-","app":"100%","twr":"100%","aro":"75%","teknik":"100%","pia":"-","twr_app":"-"}},{"type":"Feature","id":"airnav_branch.30","geometry":{"type":"Point","coordinates":[131.286667,-0.89166667]},"geometry_name":"geom","properties":{"id":30,"name":"Sorong","status":"Green","remarks":"MANOKWARI = TWR(100%) ARO(100%) TEK(80%)\r\nFAK-FAK = ARO(100%) TEK(100%)\r\nBABO = ARO(100%)\r\nBINTUNI = ARO(50%)\r\nKAIMANA = ARO(100%)\r\nRAJA AMPAT = ARO(100%)\r\nTEMINABUAN = ARO(100%)","ats_unit":"TWR, APP PROC","acc":"-","app":"82%","twr":"88%","aro":"100%","teknik":"96%","pia":"100%","twr_app":"-"}},{"type":"Feature","id":"airnav_branch.23","geometry":{"type":"Point","coordinates":[107.576111,-6.901944]},"geometry_name":"geom","properties":{"id":23,"name":"Bandung","status":"Green","remarks":"CIREBON = TWR(83%) ARO(100%) TEK(100%)\r\nTASIKMALAYA = TWR(100%)\r\nKERTAJATI = TWR/APP(100%) ARO(100%) TEK(100%)\r\nPANGANDARAN = ARO(100%)\r\n","ats_unit":"TWR, APP PROC","acc":"-","app":"88%","twr":"92%","aro":"75%","teknik":"100%","pia":"-","twr_app":"-"}},{"type":"Feature","id":"airnav_branch.21","geometry":{"type":"Point","coordinates":[106.661111,-6.123611]},"geometry_name":"geom","properties":{"id":21,"name":"Jakarta","status":"Green","remarks":"","ats_unit":"TWR, APP SUR, ACC, FIS, ACS","acc":"98%","app":"96%","twr":"96%","aro":"100%","teknik":"99%","pia":"100%","twr_app":"-"}},{"type":"Feature","id":"airnav_branch.18","geometry":{"type":"Point","coordinates":[110.431944,-7.786667]},"geometry_name":"geom","properties":{"id":18,"name":"Yogyakarta","status":"Green","remarks":"Kulon Progo = TWR (100%), APP (100%), TEK (100%)\r\nCILACAP = TWR(100%) ARO(100%) TEK(100%)","ats_unit":"TWR, APP SUR","acc":"-","app":"89%","twr":"100%","aro":"83%","teknik":"100%","pia":"-","twr_app":"-"}},{"type":"Feature","id":"airnav_branch.38","geometry":{"type":"Point","coordinates":[140.416944,-8.52111111]},"geometry_name":"geom","properties":{"id":38,"name":"Merauke","status":"Yellow","remarks":"","ats_unit":"TWR/APP PROC COM","acc":"-","app":"53%","twr":"59%","aro":"100%","teknik":"82%","pia":"-","twr_app":"-"}},{"type":"Feature","id":"airnav_branch.41","geometry":{"type":"Point","coordinates":[102.339444,-3.86111111]},"geometry_name":"geom","properties":{"id":41,"name":"Bengkulu","status":"Green","remarks":"","ats_unit":"TWR/APP PROC COM","acc":"-","app":"-","twr":"-","aro":"100%","teknik":"-","pia":"-","twr_app":"100%"}},{"type":"Feature","id":"airnav_branch.40","geometry":{"type":"Point","coordinates":[127.380278,0.83111111]},"geometry_name":"geom","properties":{"id":40,"name":"Ternate","status":"Yellow","remarks":"","ats_unit":"TWR","acc":"-","app":"-","twr":"70%","aro":"100%","teknik":"78%","pia":"-","twr_app":"-"}},{"type":"Feature","id":"airnav_branch.15","geometry":{"type":"Point","coordinates":[119.554444,-5.060833]},"geometry_name":"geom","properties":{"id":15,"name":"Makassar","status":"Green","remarks":"PALU = TWR/APP(100%) ARO=(60%) TEK(57,14%)\r\nLuwuk = ARO (80%), TEK (75%)\r\nMamuju = ARO (80%) TEK(33,33%)\r\nMASAMBA = ARO(75%)\r\nTANA TORAJA = ARO(33,33%)\r\nBONE = 0%\r\nSELAYAR = ARO(33,33%)\r\nBUOL = ARO(33,33%)\r\nTOLI TOLI = ARO(50%) TEK(33,33%)\r\nBUA = ARO(33,33%)\r\nPOSO = ARO(100%)","ats_unit":"TWR, APP SUR, ACC, FIS, ACS","acc":"98%","app":"94%","twr":"93%","aro":"91%","teknik":"90%","pia":"0%","twr_app":"-"}},{"type":"Feature","id":"airnav_branch.16","geometry":{"type":"Point","coordinates":[140.511667,-2.571667]},"geometry_name":"geom","properties":{"id":16,"name":"Sentani","status":"Green","remarks":"Biak = TWR/APP (91,67%), ARO (87,50%), TEK (91,67%)\r\nOksibil = TWR (57.14%), ARO (50,00%), TEK (100%)\r\nTimika = TWR (88,89%), APP (100%), ARO (100%), TEK (100%)","ats_unit":"TWR, APP SUR","acc":"-","app":"88,24%","twr":"89,47%","aro":"100%","teknik":"88.10%","pia":"-","twr_app":"-"}},{"type":"Feature","id":"airnav_branch.13","geometry":{"type":"Point","coordinates":[123.663889,-10.177778]},"geometry_name":"geom","properties":{"id":13,"name":"Kupang","status":"Green","remarks":"ENDE= TWR(86%) ARO(100%) TEK(100%)\r\nMAUMERE = TWR(71%) TEK(100%)\r\nALOR = ARO(100%) TEK(100%)\r\nATAMBUA = ARO(100%) TEK(100%)\r\nBAJAWA = ARO(100%) TEK(100%)\r\nLARANTUKA = ARO(100%) TEK(100%)\r\nLEWOLEBA = ARO(100%) TEK(100%)\r\nROTE = ARO(100%) TEK(100%)\r\nRUTENG = ARO(100%) TEK(100%)\r\nSABU = ARO(100%) TEK(100%)\r\n","ats_unit":"TWR, APP PROC","acc":"-","app":"90%","twr":"82%","aro":"89%","teknik":"95%","pia":"-","twr_app":"Combine unit & service APP & Tower nomor Notam : B0807/20"}},{"type":"Feature","id":"airnav_branch.11","geometry":{"type":"Point","coordinates":[117.569444,3.326667]},"geometry_name":"geom","properties":{"id":11,"name":"Tarakan","status":"Green","remarks":"Unit Malinau = TWR (100%), ARO (100%), TEK (100%)\r\nUnit Nunukan = ARO (100%), TEK (100%)\r\nUnit Tanjung Harapan = ARO (100%), TEK (100%)\r\nUnit Long Bawan = ARO (100%)\r\nUnit Long Ampung = ARO (100%)","ats_unit":"TWR, APP PROC","acc":"-","app":"90%","twr":"80%","aro":"100%","teknik":"96%","pia":"-","twr_app":"-"}},{"type":"Feature","id":"airnav_branch.4","geometry":{"type":"Point","coordinates":[104.113889,1.118611]},"geometry_name":"geom","properties":{"id":4,"name":"Batam","status":"Green","remarks":"Unit Natuna = TWR (100%), TEK (100%)\r\nUnit Matak =  ARO (100%) TEK (100%)","ats_unit":"TWR","acc":"-","app":"-","twr":"100%","aro":"100%","teknik":"100%","pia":"-","twr_app":"-"}},{"type":"Feature","id":"airnav_branch.42","geometry":{"type":"Point","coordinates":[122.852222,0.63833333]},"geometry_name":"geom","properties":{"id":42,"name":"Gorontalo","status":"Green","remarks":"","ats_unit":"TWR/APP PROC COM","acc":"-","app":"-","twr":"-","aro":"-","teknik":"100%","pia":"-","twr_app":"90%"}},{"type":"Feature","id":"airnav_branch.43","geometry":{"type":"Point","coordinates":[105.175556,-5.24055556]},"geometry_name":"geom","properties":{"id":43,"name":"Bandar Lampung","status":"Green","remarks":"","ats_unit":"TWR/APP PROC COM","acc":"-","app":"-","twr":"-","aro":"100%","teknik":"100 %","pia":"-","twr_app":"100%"}}],"totalFeatures":38,"numberMatched":38,"numberReturned":38,"timeStamp":"2022-03-11T01:35:08.398Z","crs":{"type":"name","properties":{"name":"urn:ogc:def:crs:EPSG::4326"}}}