{"type":"FeatureCollection","features":[{"type":"Feature","id":"volcanoes.1","geometry":{"type":"Point","coordinates":[95.658,5.448]},"geometry_name":"geom","properties":{"gid":1,"volcano_code":261020,"volcano_name":"Seulawah Agam","country":"Indonesia","primary_volcano_type":"Stratovolcano","activity_erruption":"Eruption Observed","last_known_erruption":"1839 CE","latitude":5.448,"longitude":95.658,"elevation":1810,"colour":"Green"}},{"type":"Feature","id":"volcanoes.2","geometry":{"type":"Point","coordinates":[96.289,4.903]},"geometry_name":"geom","properties":{"gid":2,"volcano_code":261030,"volcano_name":"Peuet Sague","country":"Indonesia","primary_volcano_type":"Complex","activity_erruption":"Eruption Observed","last_known_erruption":"2000 CE","latitude":4.903,"longitude":96.289,"elevation":2785,"colour":"Green"}},{"type":"Feature","id":"volcanoes.3","geometry":{"type":"Point","coordinates":[96.821,4.769]},"geometry_name":"geom","properties":{"gid":3,"volcano_code":261050,"volcano_name":"Telong, Bur ni","country":"Indonesia","primary_volcano_type":"Stratovolcano","activity_erruption":"Eruption Observed","last_known_erruption":"1937 CE","latitude":4.769,"longitude":96.821,"elevation":2617,"colour":"Green"}},{"type":"Feature","id":"volcanoes.4","geometry":{"type":"Point","coordinates":[98.501,3.248]},"geometry_name":"geom","properties":{"gid":4,"volcano_code":261070,"volcano_name":"Singkut","country":"Indonesia","primary_volcano_type":"Caldera(s)","activity_erruption":"Eruption Observed","last_known_erruption":"1881 CE","latitude":3.248,"longitude":98.501,"elevation":2181,"colour":"Green"}},{"type":"Feature","id":"volcanoes.6","geometry":{"type":"Point","coordinates":[98.83,2.58]},"geometry_name":"geom","properties":{"gid":6,"volcano_code":261090,"volcano_name":"Toba","country":"Indonesia","primary_volcano_type":"Caldera","activity_erruption":"Evidence Credible","last_known_erruption":"Unknown","latitude":2.58,"longitude":98.83,"elevation":2157,"colour":"Green"}},{"type":"Feature","id":"volcanoes.7","geometry":{"type":"Point","coordinates":[99.255,1.556]},"geometry_name":"geom","properties":{"gid":7,"volcano_code":261110,"volcano_name":"Sibualbuali","country":"Indonesia","primary_volcano_type":"Stratovolcano","activity_erruption":"Evidence Uncertain","last_known_erruption":"Unknown","latitude":1.556,"longitude":99.255,"elevation":1819,"colour":"Green"}},{"type":"Feature","id":"volcanoes.8","geometry":{"type":"Point","coordinates":[99.209,1.478]},"geometry_name":"geom","properties":{"gid":8,"volcano_code":261111,"volcano_name":"Lubukraya","country":"Indonesia","primary_volcano_type":"Stratovolcano","activity_erruption":"Evidence Uncertain","last_known_erruption":"Unknown","latitude":1.478,"longitude":99.209,"elevation":1862,"colour":"Green"}},{"type":"Feature","id":"volcanoes.9","geometry":{"type":"Point","coordinates":[99.539,0.686]},"geometry_name":"geom","properties":{"gid":9,"volcano_code":261120,"volcano_name":"Sorikmarapi","country":"Indonesia","primary_volcano_type":"Stratovolcano","activity_erruption":"Eruption Observed","last_known_erruption":"1986 CE","latitude":0.686,"longitude":99.539,"elevation":2145,"colour":"Green"}},{"type":"Feature","id":"volcanoes.10","geometry":{"type":"Point","coordinates":[99.67,0.47]},"geometry_name":"geom","properties":{"gid":10,"volcano_code":261121,"volcano_name":"Malintang","country":"Indonesia","primary_volcano_type":"Stratovolcano","activity_erruption":"Evidence Credible","last_known_erruption":"Unknown","latitude":0.47,"longitude":99.67,"elevation":1983,"colour":"Green"}},{"type":"Feature","id":"volcanoes.11","geometry":{"type":"Point","coordinates":[99.98,0.079]},"geometry_name":"geom","properties":{"gid":11,"volcano_code":261130,"volcano_name":"Talakmau","country":"Indonesia","primary_volcano_type":"Complex","activity_erruption":"Evidence Credible","last_known_erruption":"Unknown","latitude":0.079,"longitude":99.98,"elevation":2919,"colour":"Green"}},{"type":"Feature","id":"volcanoes.12","geometry":{"type":"Point","coordinates":[100.189,0.074]},"geometry_name":"geom","properties":{"gid":12,"volcano_code":261131,"volcano_name":"Sarik-Gajah","country":"Indonesia","primary_volcano_type":"Pyroclastic cone(s)","activity_erruption":"Evidence Uncertain","last_known_erruption":"Unknown","latitude":0.074,"longitude":100.189,"elevation":737,"colour":"Green"}},{"type":"Feature","id":"volcanoes.13","geometry":{"type":"Point","coordinates":[100.474,-0.38]},"geometry_name":"geom","properties":{"gid":13,"volcano_code":261140,"volcano_name":"Marapi","country":"Indonesia","primary_volcano_type":"Complex","activity_erruption":"Eruption Observed","last_known_erruption":"2018 CE","latitude":-0.38,"longitude":100.474,"elevation":2885,"colour":"Green"}},{"type":"Feature","id":"volcanoes.14","geometry":{"type":"Point","coordinates":[100.331,-0.39]},"geometry_name":"geom","properties":{"gid":14,"volcano_code":261150,"volcano_name":"Tandikat-Singgalang","country":"Indonesia","primary_volcano_type":"Stratovolcano(es)","activity_erruption":"Eruption Observed","last_known_erruption":"1924 CE","latitude":-0.39,"longitude":100.331,"elevation":2854,"colour":"Green"}},{"type":"Feature","id":"volcanoes.15","geometry":{"type":"Point","coordinates":[100.681,-0.979]},"geometry_name":"geom","properties":{"gid":15,"volcano_code":261160,"volcano_name":"Talang","country":"Indonesia","primary_volcano_type":"Stratovolcano","activity_erruption":"Eruption Observed","last_known_erruption":"2007 CE","latitude":-0.979,"longitude":100.681,"elevation":2575,"colour":"Green"}},{"type":"Feature","id":"volcanoes.17","geometry":{"type":"Point","coordinates":[101.728,-2.414]},"geometry_name":"geom","properties":{"gid":17,"volcano_code":261180,"volcano_name":"Sumbing","country":"Indonesia","primary_volcano_type":"Stratovolcano","activity_erruption":"Eruption Observed","last_known_erruption":"1921 CE","latitude":-2.414,"longitude":101.728,"elevation":2507,"colour":"Green"}},{"type":"Feature","id":"volcanoes.18","geometry":{"type":"Point","coordinates":[102.239,-3.247]},"geometry_name":"geom","properties":{"gid":18,"volcano_code":261200,"volcano_name":"Hululais","country":"Indonesia","primary_volcano_type":"Compound","activity_erruption":"Unrest / Holocene","last_known_erruption":"Unknown","latitude":-3.247,"longitude":102.239,"elevation":2122,"colour":"Green"}},{"type":"Feature","id":"volcanoes.20","geometry":{"type":"Point","coordinates":[102.615,-3.522]},"geometry_name":"geom","properties":{"gid":20,"volcano_code":261220,"volcano_name":"Kaba","country":"Indonesia","primary_volcano_type":"Stratovolcano","activity_erruption":"Eruption Observed","last_known_erruption":"2000 CE","latitude":-3.522,"longitude":102.615,"elevation":1940,"colour":"Green"}},{"type":"Feature","id":"volcanoes.21","geometry":{"type":"Point","coordinates":[103.121,-4.016]},"geometry_name":"geom","properties":{"gid":21,"volcano_code":261230,"volcano_name":"Dempo","country":"Indonesia","primary_volcano_type":"Stratovolcano(es)","activity_erruption":"Eruption Observed","last_known_erruption":"2017 CE","latitude":-4.016,"longitude":103.121,"elevation":3142,"colour":"Green"}},{"type":"Feature","id":"volcanoes.22","geometry":{"type":"Point","coordinates":[103.306,-4.257]},"geometry_name":"geom","properties":{"gid":22,"volcano_code":261231,"volcano_name":"Patah","country":"Indonesia","primary_volcano_type":"Stratovolcano?","activity_erruption":"Unrest / Holocene","last_known_erruption":"Unknown","latitude":-4.257,"longitude":103.306,"elevation":2836,"colour":"Green"}},{"type":"Feature","id":"volcanoes.23","geometry":{"type":"Point","coordinates":[103.925,-4.871]},"geometry_name":"geom","properties":{"gid":23,"volcano_code":261251,"volcano_name":"Ranau","country":"Indonesia","primary_volcano_type":"Caldera","activity_erruption":"Evidence Uncertain","last_known_erruption":"Unknown","latitude":-4.871,"longitude":103.925,"elevation":1854,"colour":"Green"}},{"type":"Feature","id":"volcanoes.24","geometry":{"type":"Point","coordinates":[104.317,-5.107]},"geometry_name":"geom","properties":{"gid":24,"volcano_code":261260,"volcano_name":"Sekincau Belirang","country":"Indonesia","primary_volcano_type":"Caldera(s)","activity_erruption":"Unrest / Holocene","last_known_erruption":"Unknown","latitude":-5.107,"longitude":104.317,"elevation":1717,"colour":"Green"}},{"type":"Feature","id":"volcanoes.25","geometry":{"type":"Point","coordinates":[104.27,-5.25]},"geometry_name":"geom","properties":{"gid":25,"volcano_code":261270,"volcano_name":"Suoh","country":"Indonesia","primary_volcano_type":"Caldera(s)","activity_erruption":"Eruption Observed","last_known_erruption":"1933 CE","latitude":-5.25,"longitude":104.27,"elevation":1000,"colour":"Green"}},{"type":"Feature","id":"volcanoes.26","geometry":{"type":"Point","coordinates":[104.59,-5.334]},"geometry_name":"geom","properties":{"gid":26,"volcano_code":261280,"volcano_name":"Hulubelu","country":"Indonesia","primary_volcano_type":"Caldera","activity_erruption":"Unrest / Holocene","last_known_erruption":"Unknown","latitude":-5.334,"longitude":104.59,"elevation":849,"colour":"Green"}},{"type":"Feature","id":"volcanoes.27","geometry":{"type":"Point","coordinates":[105.625,-5.78]},"geometry_name":"geom","properties":{"gid":27,"volcano_code":261290,"volcano_name":"Rajabasa","country":"Indonesia","primary_volcano_type":"Stratovolcano","activity_erruption":"Unrest / Holocene","last_known_erruption":"Unknown","latitude":-5.78,"longitude":105.625,"elevation":1281,"colour":"Green"}},{"type":"Feature","id":"volcanoes.28","geometry":{"type":"Point","coordinates":[105.423,-6.102]},"geometry_name":"geom","properties":{"gid":28,"volcano_code":262000,"volcano_name":"Krakatau","country":"Indonesia","primary_volcano_type":"Caldera","activity_erruption":"Eruption Observed","last_known_erruption":"2020 CE","latitude":-6.102,"longitude":105.423,"elevation":155,"colour":"Orange"}},{"type":"Feature","id":"volcanoes.29","geometry":{"type":"Point","coordinates":[105.978,-6.343]},"geometry_name":"geom","properties":{"gid":29,"volcano_code":263010,"volcano_name":"Pulosari","country":"Indonesia","primary_volcano_type":"Stratovolcano","activity_erruption":"Evidence Credible","last_known_erruption":"Unknown","latitude":-6.343,"longitude":105.978,"elevation":1324,"colour":"Green"}},{"type":"Feature","id":"volcanoes.30","geometry":{"type":"Point","coordinates":[106.05,-6.268]},"geometry_name":"geom","properties":{"gid":30,"volcano_code":263020,"volcano_name":"Karang","country":"Indonesia","primary_volcano_type":"Stratovolcano","activity_erruption":"Evidence Uncertain","last_known_erruption":"Unknown","latitude":-6.268,"longitude":106.05,"elevation":1768,"colour":"Green"}},{"type":"Feature","id":"volcanoes.31","geometry":{"type":"Point","coordinates":[106.7,-6.75]},"geometry_name":"geom","properties":{"gid":31,"volcano_code":263040,"volcano_name":"Perbakti-Gagak","country":"Indonesia","primary_volcano_type":"Stratovolcano(es)","activity_erruption":"Eruption Observed","last_known_erruption":"1939 CE","latitude":-6.75,"longitude":106.7,"elevation":1699,"colour":"Green"}},{"type":"Feature","id":"volcanoes.32","geometry":{"type":"Point","coordinates":[106.73,-6.72]},"geometry_name":"geom","properties":{"gid":32,"volcano_code":263050,"volcano_name":"Salak","country":"Indonesia","primary_volcano_type":"Stratovolcano","activity_erruption":"Eruption Observed","last_known_erruption":"1938 CE","latitude":-6.72,"longitude":106.73,"elevation":2211,"colour":"Green"}},{"type":"Feature","id":"volcanoes.33","geometry":{"type":"Point","coordinates":[106.965,-6.77]},"geometry_name":"geom","properties":{"gid":33,"volcano_code":263060,"volcano_name":"Gede-Pangrango","country":"Indonesia","primary_volcano_type":"Stratovolcano(es)","activity_erruption":"Eruption Observed","last_known_erruption":"1957 CE","latitude":-6.77,"longitude":106.965,"elevation":3008,"colour":"Green"}},{"type":"Feature","id":"volcanoes.34","geometry":{"type":"Point","coordinates":[107.4,-7.162]},"geometry_name":"geom","properties":{"gid":34,"volcano_code":263070,"volcano_name":"Patuha","country":"Indonesia","primary_volcano_type":"Stratovolcano","activity_erruption":"Evidence Credible","last_known_erruption":"Unknown","latitude":-7.162,"longitude":107.4,"elevation":2422,"colour":"Green"}},{"type":"Feature","id":"volcanoes.36","geometry":{"type":"Point","coordinates":[107.73,-7.32]},"geometry_name":"geom","properties":{"gid":36,"volcano_code":263100,"volcano_name":"Papandayan","country":"Indonesia","primary_volcano_type":"Stratovolcano(es)","activity_erruption":"Eruption Observed","last_known_erruption":"2002 CE","latitude":-7.32,"longitude":107.73,"elevation":2665,"colour":"Green"}},{"type":"Feature","id":"volcanoes.37","geometry":{"type":"Point","coordinates":[107.709,-7.245]},"geometry_name":"geom","properties":{"gid":37,"volcano_code":263110,"volcano_name":"Kendang","country":"Indonesia","primary_volcano_type":"Stratovolcano","activity_erruption":"Evidence Credible","last_known_erruption":"Unknown","latitude":-7.245,"longitude":107.709,"elevation":2594,"colour":"Green"}},{"type":"Feature","id":"volcanoes.38","geometry":{"type":"Point","coordinates":[107.84,-7.143]},"geometry_name":"geom","properties":{"gid":38,"volcano_code":263130,"volcano_name":"Guntur","country":"Indonesia","primary_volcano_type":"Complex","activity_erruption":"Eruption Observed","last_known_erruption":"1847 CE","latitude":-7.143,"longitude":107.84,"elevation":2249,"colour":"Green"}},{"type":"Feature","id":"volcanoes.39","geometry":{"type":"Point","coordinates":[107.95,-6.77]},"geometry_name":"geom","properties":{"gid":39,"volcano_code":263131,"volcano_name":"Tampomas","country":"Indonesia","primary_volcano_type":"Stratovolcano","activity_erruption":"Evidence Credible","last_known_erruption":"Unknown","latitude":-6.77,"longitude":107.95,"elevation":1684,"colour":"Green"}},{"type":"Feature","id":"volcanoes.40","geometry":{"type":"Point","coordinates":[108.058,-7.25]},"geometry_name":"geom","properties":{"gid":40,"volcano_code":263140,"volcano_name":"Galunggung","country":"Indonesia","primary_volcano_type":"Stratovolcano","activity_erruption":"Eruption Observed","last_known_erruption":"1984 CE","latitude":-7.25,"longitude":108.058,"elevation":2168,"colour":"Green"}},{"type":"Feature","id":"volcanoes.41","geometry":{"type":"Point","coordinates":[108.07,-7.208]},"geometry_name":"geom","properties":{"gid":41,"volcano_code":263150,"volcano_name":"Talagabodas","country":"Indonesia","primary_volcano_type":"Stratovolcano","activity_erruption":"Unrest / Holocene","last_known_erruption":"Unknown","latitude":-7.208,"longitude":108.07,"elevation":2201,"colour":"Green"}},{"type":"Feature","id":"volcanoes.42","geometry":{"type":"Point","coordinates":[108.408,-6.895]},"geometry_name":"geom","properties":{"gid":42,"volcano_code":263170,"volcano_name":"Cereme","country":"Indonesia","primary_volcano_type":"Stratovolcano","activity_erruption":"Eruption Observed","last_known_erruption":"1951 CE","latitude":-6.895,"longitude":108.408,"elevation":3039,"colour":"Green"}},{"type":"Feature","id":"volcanoes.43","geometry":{"type":"Point","coordinates":[109.208,-7.242]},"geometry_name":"geom","properties":{"gid":43,"volcano_code":263180,"volcano_name":"Slamet","country":"Indonesia","primary_volcano_type":"Stratovolcano","activity_erruption":"Eruption Observed","last_known_erruption":"2014 CE","latitude":-7.242,"longitude":109.208,"elevation":3428,"colour":"Yellow"}},{"type":"Feature","id":"volcanoes.45","geometry":{"type":"Point","coordinates":[109.992,-7.3]},"geometry_name":"geom","properties":{"gid":45,"volcano_code":263210,"volcano_name":"Sundoro","country":"Indonesia","primary_volcano_type":"Stratovolcano","activity_erruption":"Eruption Observed","last_known_erruption":"1971 CE","latitude":-7.3,"longitude":109.992,"elevation":3136,"colour":"Green"}},{"type":"Feature","id":"volcanoes.46","geometry":{"type":"Point","coordinates":[110.07,-7.384]},"geometry_name":"geom","properties":{"gid":46,"volcano_code":263220,"volcano_name":"Sumbing","country":"Indonesia","primary_volcano_type":"Stratovolcano","activity_erruption":"Eruption Observed","last_known_erruption":"1730 CE","latitude":-7.384,"longitude":110.07,"elevation":3371,"colour":"Green"}},{"type":"Feature","id":"volcanoes.47","geometry":{"type":"Point","coordinates":[110.33,-7.18]},"geometry_name":"geom","properties":{"gid":47,"volcano_code":263230,"volcano_name":"Ungaran","country":"Indonesia","primary_volcano_type":"Stratovolcano","activity_erruption":"Evidence Credible","last_known_erruption":"Unknown","latitude":-7.18,"longitude":110.33,"elevation":2050,"colour":"Green"}},{"type":"Feature","id":"volcanoes.19","geometry":{"type":"Point","coordinates":[102.37,-3.38]},"geometry_name":"geom","properties":{"gid":19,"volcano_code":261210,"volcano_name":"Daun, Bukit","country":"Indonesia","primary_volcano_type":"Stratovolcano(es)","activity_erruption":"Unrest / Holocene","last_known_erruption":"Unknown","latitude":-3.38,"longitude":102.37,"elevation":2467,"colour":"Green"}},{"type":"Feature","id":"volcanoes.35","geometry":{"type":"Point","coordinates":[107.6,-6.77]},"geometry_name":"geom","properties":{"gid":35,"volcano_code":263090,"volcano_name":"Tangkuban Parahu","country":"Indonesia","primary_volcano_type":"Stratovolcano","activity_erruption":"Eruption Observed","last_known_erruption":"2019 CE","latitude":-6.77,"longitude":107.6,"elevation":2084,"colour":"Orange"}},{"type":"Feature","id":"volcanoes.5","geometry":{"type":"Point","coordinates":[98.392,3.17]},"geometry_name":"geom","properties":{"gid":5,"volcano_code":261080,"volcano_name":"Sinabung","country":"Indonesia","primary_volcano_type":"Stratovolcano","activity_erruption":"Eruption Observed","last_known_erruption":"2019 CE","latitude":3.17,"longitude":98.392,"elevation":2460,"colour":"Red"}},{"type":"Feature","id":"volcanoes.16","geometry":{"type":"Point","coordinates":[101.264,-1.697]},"geometry_name":"geom","properties":{"gid":16,"volcano_code":261170,"volcano_name":"Kerinci","country":"Indonesia","primary_volcano_type":"Stratovolcano","activity_erruption":"Eruption Observed","last_known_erruption":"2020 CE","latitude":-1.697,"longitude":101.264,"elevation":3800,"colour":"Yellow"}},{"type":"Feature","id":"volcanoes.48","geometry":{"type":"Point","coordinates":[110.4,-7.362]},"geometry_name":"geom","properties":{"gid":48,"volcano_code":263231,"volcano_name":"Telomoyo","country":"Indonesia","primary_volcano_type":"Stratovolcano","activity_erruption":"Evidence Credible","last_known_erruption":"Unknown","latitude":-7.362,"longitude":110.4,"elevation":1864,"colour":"Green"}},{"type":"Feature","id":"volcanoes.49","geometry":{"type":"Point","coordinates":[110.44,-7.454]},"geometry_name":"geom","properties":{"gid":49,"volcano_code":263240,"volcano_name":"Merbabu","country":"Indonesia","primary_volcano_type":"Stratovolcano","activity_erruption":"Eruption Observed","last_known_erruption":"1797 CE","latitude":-7.454,"longitude":110.44,"elevation":3118,"colour":"Green"}},{"type":"Feature","id":"volcanoes.51","geometry":{"type":"Point","coordinates":[110.88,-6.62]},"geometry_name":"geom","properties":{"gid":51,"volcano_code":263251,"volcano_name":"Muria","country":"Indonesia","primary_volcano_type":"Stratovolcano","activity_erruption":"Eruption Dated","last_known_erruption":"160 BCE","latitude":-6.62,"longitude":110.88,"elevation":1625,"colour":"Green"}},{"type":"Feature","id":"volcanoes.52","geometry":{"type":"Point","coordinates":[111.192,-7.625]},"geometry_name":"geom","properties":{"gid":52,"volcano_code":263260,"volcano_name":"Lawu","country":"Indonesia","primary_volcano_type":"Stratovolcano","activity_erruption":"Eruption Observed","last_known_erruption":"1885 CE","latitude":-7.625,"longitude":111.192,"elevation":3265,"colour":"Green"}},{"type":"Feature","id":"volcanoes.53","geometry":{"type":"Point","coordinates":[111.758,-7.808]},"geometry_name":"geom","properties":{"gid":53,"volcano_code":263270,"volcano_name":"Wilis","country":"Indonesia","primary_volcano_type":"Stratovolcano","activity_erruption":"Evidence Credible","last_known_erruption":"Unknown","latitude":-7.808,"longitude":111.758,"elevation":2563,"colour":"Green"}},{"type":"Feature","id":"volcanoes.54","geometry":{"type":"Point","coordinates":[112.308,-7.93]},"geometry_name":"geom","properties":{"gid":54,"volcano_code":263280,"volcano_name":"Kelut","country":"Indonesia","primary_volcano_type":"Stratovolcano","activity_erruption":"Eruption Observed","last_known_erruption":"2014 CE","latitude":-7.93,"longitude":112.308,"elevation":1731,"colour":"Green"}},{"type":"Feature","id":"volcanoes.55","geometry":{"type":"Point","coordinates":[112.45,-7.92]},"geometry_name":"geom","properties":{"gid":55,"volcano_code":263281,"volcano_name":"Kawi-Butak","country":"Indonesia","primary_volcano_type":"Stratovolcano(es)","activity_erruption":"Evidence Credible","last_known_erruption":"Unknown","latitude":-7.92,"longitude":112.45,"elevation":2651,"colour":"Green"}},{"type":"Feature","id":"volcanoes.56","geometry":{"type":"Point","coordinates":[112.575,-7.733]},"geometry_name":"geom","properties":{"gid":56,"volcano_code":263290,"volcano_name":"Arjuno-Welirang","country":"Indonesia","primary_volcano_type":"Stratovolcano","activity_erruption":"Eruption Observed","last_known_erruption":"1952 CE","latitude":-7.733,"longitude":112.575,"elevation":3339,"colour":"Green"}},{"type":"Feature","id":"volcanoes.57","geometry":{"type":"Point","coordinates":[112.62,-7.616]},"geometry_name":"geom","properties":{"gid":57,"volcano_code":263291,"volcano_name":"Penanggungan","country":"Indonesia","primary_volcano_type":"Stratovolcano","activity_erruption":"Evidence Credible","last_known_erruption":"Unknown","latitude":-7.616,"longitude":112.62,"elevation":1631,"colour":"Green"}},{"type":"Feature","id":"volcanoes.59","geometry":{"type":"Point","coordinates":[112.95,-7.942]},"geometry_name":"geom","properties":{"gid":59,"volcano_code":263310,"volcano_name":"Tengger Caldera","country":"Indonesia","primary_volcano_type":"Stratovolcano(es)","activity_erruption":"Eruption Observed","last_known_erruption":"2019 CE","latitude":-7.942,"longitude":112.95,"elevation":2329,"colour":"Orange"}},{"type":"Feature","id":"volcanoes.60","geometry":{"type":"Point","coordinates":[113.341,-7.981]},"geometry_name":"geom","properties":{"gid":60,"volcano_code":263320,"volcano_name":"Lamongan","country":"Indonesia","primary_volcano_type":"Stratovolcano","activity_erruption":"Eruption Observed","last_known_erruption":"1898 CE","latitude":-7.981,"longitude":113.341,"elevation":1641,"colour":"Green"}},{"type":"Feature","id":"volcanoes.61","geometry":{"type":"Point","coordinates":[113.57,-7.97]},"geometry_name":"geom","properties":{"gid":61,"volcano_code":263330,"volcano_name":"Iyang-Argapura","country":"Indonesia","primary_volcano_type":"Complex","activity_erruption":"Evidence Credible","last_known_erruption":"Unknown","latitude":-7.97,"longitude":113.57,"elevation":3088,"colour":"Green"}},{"type":"Feature","id":"volcanoes.62","geometry":{"type":"Point","coordinates":[114.056,-8.119]},"geometry_name":"geom","properties":{"gid":62,"volcano_code":263340,"volcano_name":"Raung","country":"Indonesia","primary_volcano_type":"Stratovolcano","activity_erruption":"Eruption Observed","last_known_erruption":"2015 CE","latitude":-8.119,"longitude":114.056,"elevation":3260,"colour":"Orange"}},{"type":"Feature","id":"volcanoes.63","geometry":{"type":"Point","coordinates":[114.242,-8.058]},"geometry_name":"geom","properties":{"gid":63,"volcano_code":263350,"volcano_name":"Ijen","country":"Indonesia","primary_volcano_type":"Stratovolcano(es)","activity_erruption":"Eruption Observed","last_known_erruption":"1999 CE","latitude":-8.058,"longitude":114.242,"elevation":2769,"colour":"Green"}},{"type":"Feature","id":"volcanoes.64","geometry":{"type":"Point","coordinates":[114.37,-7.85]},"geometry_name":"geom","properties":{"gid":64,"volcano_code":263351,"volcano_name":"Baluran","country":"Indonesia","primary_volcano_type":"Stratovolcano","activity_erruption":"Evidence Uncertain","last_known_erruption":"Unknown","latitude":-7.85,"longitude":114.37,"elevation":1247,"colour":"Green"}},{"type":"Feature","id":"volcanoes.65","geometry":{"type":"Point","coordinates":[115.133,-8.283]},"geometry_name":"geom","properties":{"gid":65,"volcano_code":264001,"volcano_name":"Buyan-Bratan","country":"Indonesia","primary_volcano_type":"Caldera","activity_erruption":"Evidence Credible","last_known_erruption":"Unknown","latitude":-8.283,"longitude":115.133,"elevation":2244,"colour":"Green"}},{"type":"Feature","id":"volcanoes.67","geometry":{"type":"Point","coordinates":[115.508,-8.343]},"geometry_name":"geom","properties":{"gid":67,"volcano_code":264020,"volcano_name":"Agung","country":"Indonesia","primary_volcano_type":"Stratovolcano","activity_erruption":"Eruption Observed","last_known_erruption":"2019 CE","latitude":-8.343,"longitude":115.508,"elevation":2997,"colour":"Orange"}},{"type":"Feature","id":"volcanoes.68","geometry":{"type":"Point","coordinates":[116.47,-8.42]},"geometry_name":"geom","properties":{"gid":68,"volcano_code":264030,"volcano_name":"Rinjani","country":"Indonesia","primary_volcano_type":"Stratovolcano","activity_erruption":"Eruption Observed","last_known_erruption":"2016 CE","latitude":-8.42,"longitude":116.47,"elevation":3726,"colour":"Green"}},{"type":"Feature","id":"volcanoes.69","geometry":{"type":"Point","coordinates":[118,-8.25]},"geometry_name":"geom","properties":{"gid":69,"volcano_code":264040,"volcano_name":"Tambora","country":"Indonesia","primary_volcano_type":"Stratovolcano","activity_erruption":"Eruption Observed","last_known_erruption":"1967 CE","latitude":-8.25,"longitude":118,"elevation":2850,"colour":"Green"}},{"type":"Feature","id":"volcanoes.70","geometry":{"type":"Point","coordinates":[119.07,-8.2]},"geometry_name":"geom","properties":{"gid":70,"volcano_code":264050,"volcano_name":"Sangeang Api","country":"Indonesia","primary_volcano_type":"Complex","activity_erruption":"Eruption Observed","last_known_erruption":"2020 CE","latitude":-8.2,"longitude":119.07,"elevation":1912,"colour":"Yellow"}},{"type":"Feature","id":"volcanoes.71","geometry":{"type":"Point","coordinates":[119.986,-8.724]},"geometry_name":"geom","properties":{"gid":71,"volcano_code":264060,"volcano_name":"Sano, Wai","country":"Indonesia","primary_volcano_type":"Caldera","activity_erruption":"Evidence Credible","last_known_erruption":"Unknown","latitude":-8.724,"longitude":119.986,"elevation":1319,"colour":"Green"}},{"type":"Feature","id":"volcanoes.72","geometry":{"type":"Point","coordinates":[120.52,-8.62]},"geometry_name":"geom","properties":{"gid":72,"volcano_code":264071,"volcano_name":"Ranakah","country":"Indonesia","primary_volcano_type":"Lava dome(s)","activity_erruption":"Eruption Observed","last_known_erruption":"1991 CE","latitude":-8.62,"longitude":120.52,"elevation":2350,"colour":"Green"}},{"type":"Feature","id":"volcanoes.73","geometry":{"type":"Point","coordinates":[120.95,-8.875]},"geometry_name":"geom","properties":{"gid":73,"volcano_code":264080,"volcano_name":"Inierie","country":"Indonesia","primary_volcano_type":"Stratovolcano","activity_erruption":"Eruption Dated","last_known_erruption":"8050 BCE","latitude":-8.875,"longitude":120.95,"elevation":2245,"colour":"Green"}},{"type":"Feature","id":"volcanoes.74","geometry":{"type":"Point","coordinates":[120.98,-8.73]},"geometry_name":"geom","properties":{"gid":74,"volcano_code":264090,"volcano_name":"Inielika","country":"Indonesia","primary_volcano_type":"Complex","activity_erruption":"Eruption Observed","last_known_erruption":"2001 CE","latitude":-8.73,"longitude":120.98,"elevation":1559,"colour":"Green"}},{"type":"Feature","id":"volcanoes.75","geometry":{"type":"Point","coordinates":[121.191,-8.817]},"geometry_name":"geom","properties":{"gid":75,"volcano_code":264100,"volcano_name":"Ebulobo","country":"Indonesia","primary_volcano_type":"Stratovolcano","activity_erruption":"Eruption Observed","last_known_erruption":"1969 CE","latitude":-8.817,"longitude":121.191,"elevation":2096,"colour":"Green"}},{"type":"Feature","id":"volcanoes.76","geometry":{"type":"Point","coordinates":[121.641,-8.891]},"geometry_name":"geom","properties":{"gid":76,"volcano_code":264110,"volcano_name":"Iya","country":"Indonesia","primary_volcano_type":"Stratovolcano","activity_erruption":"Eruption Observed","last_known_erruption":"1969 CE","latitude":-8.891,"longitude":121.641,"elevation":618,"colour":"Green"}},{"type":"Feature","id":"volcanoes.77","geometry":{"type":"Point","coordinates":[121.82,-8.77]},"geometry_name":"geom","properties":{"gid":77,"volcano_code":264140,"volcano_name":"Kelimutu","country":"Indonesia","primary_volcano_type":"Complex","activity_erruption":"Eruption Observed","last_known_erruption":"1968 CE","latitude":-8.77,"longitude":121.82,"elevation":1639,"colour":"Green"}},{"type":"Feature","id":"volcanoes.78","geometry":{"type":"Point","coordinates":[121.708,-8.32]},"geometry_name":"geom","properties":{"gid":78,"volcano_code":264150,"volcano_name":"Paluweh","country":"Indonesia","primary_volcano_type":"Stratovolcano","activity_erruption":"Eruption Observed","last_known_erruption":"2013 CE","latitude":-8.32,"longitude":121.708,"elevation":875,"colour":"Green"}},{"type":"Feature","id":"volcanoes.79","geometry":{"type":"Point","coordinates":[122.455,-8.676]},"geometry_name":"geom","properties":{"gid":79,"volcano_code":264160,"volcano_name":"Egon","country":"Indonesia","primary_volcano_type":"Stratovolcano","activity_erruption":"Eruption Observed","last_known_erruption":"2008 CE","latitude":-8.676,"longitude":122.455,"elevation":1661,"colour":"Green"}},{"type":"Feature","id":"volcanoes.80","geometry":{"type":"Point","coordinates":[122.761,-8.479]},"geometry_name":"geom","properties":{"gid":80,"volcano_code":264170,"volcano_name":"Ilimuda","country":"Indonesia","primary_volcano_type":"Stratovolcano","activity_erruption":"Unrest / Holocene","last_known_erruption":"Unknown","latitude":-8.479,"longitude":122.761,"elevation":881,"colour":"Green"}},{"type":"Feature","id":"volcanoes.81","geometry":{"type":"Point","coordinates":[122.775,-8.542]},"geometry_name":"geom","properties":{"gid":81,"volcano_code":264180,"volcano_name":"Lewotobi","country":"Indonesia","primary_volcano_type":"Stratovolcano(es)","activity_erruption":"Eruption Observed","last_known_erruption":"2003 CE","latitude":-8.542,"longitude":122.775,"elevation":1703,"colour":"Green"}},{"type":"Feature","id":"volcanoes.82","geometry":{"type":"Point","coordinates":[122.833,-8.365]},"geometry_name":"geom","properties":{"gid":82,"volcano_code":264200,"volcano_name":"Leroboleng","country":"Indonesia","primary_volcano_type":"Complex","activity_erruption":"Eruption Observed","last_known_erruption":"2003 CE","latitude":-8.365,"longitude":122.833,"elevation":1095,"colour":"Green"}},{"type":"Feature","id":"volcanoes.83","geometry":{"type":"Point","coordinates":[123.258,-8.342]},"geometry_name":"geom","properties":{"gid":83,"volcano_code":264220,"volcano_name":"Iliboleng","country":"Indonesia","primary_volcano_type":"Stratovolcano","activity_erruption":"Eruption Observed","last_known_erruption":"1993 CE","latitude":-8.342,"longitude":123.258,"elevation":1659,"colour":"Green"}},{"type":"Feature","id":"volcanoes.85","geometry":{"type":"Point","coordinates":[123.38,-8.55]},"geometry_name":"geom","properties":{"gid":85,"volcano_code":264240,"volcano_name":"Ililabalekan","country":"Indonesia","primary_volcano_type":"Stratovolcano","activity_erruption":"Unrest / Holocene","last_known_erruption":"Unknown","latitude":-8.55,"longitude":123.38,"elevation":1018,"colour":"Green"}},{"type":"Feature","id":"volcanoes.86","geometry":{"type":"Point","coordinates":[123.57,-8.53]},"geometry_name":"geom","properties":{"gid":86,"volcano_code":264250,"volcano_name":"Iliwerung","country":"Indonesia","primary_volcano_type":"Complex","activity_erruption":"Eruption Observed","last_known_erruption":"2013 CE","latitude":-8.53,"longitude":123.57,"elevation":1018,"colour":"Green"}},{"type":"Feature","id":"volcanoes.87","geometry":{"type":"Point","coordinates":[123.585,-7.791]},"geometry_name":"geom","properties":{"gid":87,"volcano_code":264260,"volcano_name":"Tara, Batu","country":"Indonesia","primary_volcano_type":"Stratovolcano","activity_erruption":"Eruption Observed","last_known_erruption":"2015 CE","latitude":-7.791,"longitude":123.585,"elevation":633,"colour":"Green"}},{"type":"Feature","id":"volcanoes.89","geometry":{"type":"Point","coordinates":[126.65,-6.642]},"geometry_name":"geom","properties":{"gid":89,"volcano_code":265030,"volcano_name":"Gunungapi Wetar","country":"Indonesia","primary_volcano_type":"Stratovolcano","activity_erruption":"Eruption Observed","last_known_erruption":"1699 CE","latitude":-6.642,"longitude":126.65,"elevation":282,"colour":"Green"}},{"type":"Feature","id":"volcanoes.90","geometry":{"type":"Point","coordinates":[128.675,-7.125]},"geometry_name":"geom","properties":{"gid":90,"volcano_code":265040,"volcano_name":"Wurlali","country":"Indonesia","primary_volcano_type":"Stratovolcano","activity_erruption":"Eruption Observed","last_known_erruption":"1892 CE","latitude":-7.125,"longitude":128.675,"elevation":868,"colour":"Green"}},{"type":"Feature","id":"volcanoes.91","geometry":{"type":"Point","coordinates":[129.144,-6.976]},"geometry_name":"geom","properties":{"gid":91,"volcano_code":265050,"volcano_name":"Teon","country":"Indonesia","primary_volcano_type":"Stratovolcano","activity_erruption":"Eruption Observed","last_known_erruption":"1904 CE","latitude":-6.976,"longitude":129.144,"elevation":728,"colour":"Green"}},{"type":"Feature","id":"volcanoes.92","geometry":{"type":"Point","coordinates":[129.5,-6.73]},"geometry_name":"geom","properties":{"gid":92,"volcano_code":265060,"volcano_name":"Nila","country":"Indonesia","primary_volcano_type":"Stratovolcano","activity_erruption":"Eruption Observed","last_known_erruption":"1968 CE","latitude":-6.73,"longitude":129.5,"elevation":781,"colour":"Green"}},{"type":"Feature","id":"volcanoes.93","geometry":{"type":"Point","coordinates":[130.017,-6.312]},"geometry_name":"geom","properties":{"gid":93,"volcano_code":265070,"volcano_name":"Serua","country":"Indonesia","primary_volcano_type":"Stratovolcano","activity_erruption":"Eruption Observed","last_known_erruption":"1921 CE","latitude":-6.312,"longitude":130.017,"elevation":608,"colour":"Green"}},{"type":"Feature","id":"volcanoes.94","geometry":{"type":"Point","coordinates":[130.303,-5.543]},"geometry_name":"geom","properties":{"gid":94,"volcano_code":265080,"volcano_name":"Manuk","country":"Indonesia","primary_volcano_type":"Stratovolcano","activity_erruption":"Unrest / Holocene","last_known_erruption":"Unknown","latitude":-5.543,"longitude":130.303,"elevation":257,"colour":"Green"}},{"type":"Feature","id":"volcanoes.84","geometry":{"type":"Point","coordinates":[123.505,-8.272]},"geometry_name":"geom","properties":{"gid":84,"volcano_code":264230,"volcano_name":"Lewotolo","country":"Indonesia","primary_volcano_type":"Stratovolcano","activity_erruption":"Eruption Observed","last_known_erruption":"2012 CE","latitude":-8.272,"longitude":123.505,"elevation":1423,"colour":"Orange"}},{"type":"Feature","id":"volcanoes.50","geometry":{"type":"Point","coordinates":[110.446,-7.54]},"geometry_name":"geom","properties":{"gid":50,"volcano_code":263250,"volcano_name":"Merapi","country":"Indonesia","primary_volcano_type":"Stratovolcano","activity_erruption":"Eruption Observed","last_known_erruption":"2020 CE","latitude":-7.54,"longitude":110.446,"elevation":2910,"colour":"Orange"}},{"type":"Feature","id":"volcanoes.88","geometry":{"type":"Point","coordinates":[124.13,-8.508]},"geometry_name":"geom","properties":{"gid":88,"volcano_code":264270,"volcano_name":"Sirung","country":"Indonesia","primary_volcano_type":"Complex","activity_erruption":"Eruption Observed","last_known_erruption":"2015 CE","latitude":-8.508,"longitude":124.13,"elevation":862,"colour":"Orange"}},{"type":"Feature","id":"volcanoes.58","geometry":{"type":"Point","coordinates":[112.922,-8.108]},"geometry_name":"geom","properties":{"gid":58,"volcano_code":263300,"volcano_name":"Semeru","country":"Indonesia","primary_volcano_type":"Stratovolcano","activity_erruption":"Eruption Observed","last_known_erruption":"2020 CE","latitude":-8.108,"longitude":112.922,"elevation":3657,"colour":"Orange"}},{"type":"Feature","id":"volcanoes.66","geometry":{"type":"Point","coordinates":[115.375,-8.242]},"geometry_name":"geom","properties":{"gid":66,"volcano_code":264010,"volcano_name":"Batur","country":"Indonesia","primary_volcano_type":"Caldera","activity_erruption":"Eruption Observed","last_known_erruption":"2000 CE","latitude":-8.242,"longitude":115.375,"elevation":1717,"colour":"Green"}},{"type":"Feature","id":"volcanoes.97","geometry":{"type":"Point","coordinates":[124.42,0.75]},"geometry_name":"geom","properties":{"gid":97,"volcano_code":266020,"volcano_name":"Ambang","country":"Indonesia","primary_volcano_type":"Complex","activity_erruption":"Eruption Observed","last_known_erruption":"2005 CE","latitude":0.75,"longitude":124.42,"elevation":1795,"colour":"Green"}},{"type":"Feature","id":"volcanoes.98","geometry":{"type":"Point","coordinates":[124.737,1.112]},"geometry_name":"geom","properties":{"gid":98,"volcano_code":266030,"volcano_name":"Soputan","country":"Indonesia","primary_volcano_type":"Stratovolcano","activity_erruption":"Eruption Observed","last_known_erruption":"2020 CE","latitude":1.112,"longitude":124.737,"elevation":1785,"colour":"Orange"}},{"type":"Feature","id":"volcanoes.99","geometry":{"type":"Point","coordinates":[124.758,1.13]},"geometry_name":"geom","properties":{"gid":99,"volcano_code":266040,"volcano_name":"Riendengan-Sempu","country":"Indonesia","primary_volcano_type":"Caldera","activity_erruption":"Unrest / Holocene","last_known_erruption":"Unknown","latitude":1.13,"longitude":124.758,"elevation":1549,"colour":"Green"}},{"type":"Feature","id":"volcanoes.100","geometry":{"type":"Point","coordinates":[124.83,1.23]},"geometry_name":"geom","properties":{"gid":100,"volcano_code":266070,"volcano_name":"Tondano Caldera","country":"Indonesia","primary_volcano_type":"Caldera","activity_erruption":"Unrest / Holocene","last_known_erruption":"Unknown","latitude":1.23,"longitude":124.83,"elevation":1202,"colour":"Green"}},{"type":"Feature","id":"volcanoes.101","geometry":{"type":"Point","coordinates":[124.792,1.358]},"geometry_name":"geom","properties":{"gid":101,"volcano_code":266100,"volcano_name":"Lokon-Empung","country":"Indonesia","primary_volcano_type":"Stratovolcano(es)","activity_erruption":"Eruption Observed","last_known_erruption":"2015 CE","latitude":1.358,"longitude":124.792,"elevation":1580,"colour":"Yellow"}},{"type":"Feature","id":"volcanoes.103","geometry":{"type":"Point","coordinates":[125.031,1.454]},"geometry_name":"geom","properties":{"gid":103,"volcano_code":266120,"volcano_name":"Klabat","country":"Indonesia","primary_volcano_type":"Stratovolcano","activity_erruption":"Unrest / Holocene","last_known_erruption":"Unknown","latitude":1.454,"longitude":125.031,"elevation":1968,"colour":"Green"}},{"type":"Feature","id":"volcanoes.104","geometry":{"type":"Point","coordinates":[125.185,1.518]},"geometry_name":"geom","properties":{"gid":104,"volcano_code":266130,"volcano_name":"Tangkoko-Duasudara","country":"Indonesia","primary_volcano_type":"Stratovolcano","activity_erruption":"Eruption Observed","last_known_erruption":"1880 CE","latitude":1.518,"longitude":125.185,"elevation":1334,"colour":"Green"}},{"type":"Feature","id":"volcanoes.105","geometry":{"type":"Point","coordinates":[125.37,2.3]},"geometry_name":"geom","properties":{"gid":105,"volcano_code":267010,"volcano_name":"Ruang","country":"Indonesia","primary_volcano_type":"Stratovolcano","activity_erruption":"Eruption Observed","last_known_erruption":"2002 CE","latitude":2.3,"longitude":125.37,"elevation":725,"colour":"Green"}},{"type":"Feature","id":"volcanoes.106","geometry":{"type":"Point","coordinates":[125.407,2.781]},"geometry_name":"geom","properties":{"gid":106,"volcano_code":267020,"volcano_name":"Karangetang","country":"Indonesia","primary_volcano_type":"Stratovolcano","activity_erruption":"Eruption Observed","last_known_erruption":"2020 CE","latitude":2.781,"longitude":125.407,"elevation":1797,"colour":"Green"}},{"type":"Feature","id":"volcanoes.107","geometry":{"type":"Point","coordinates":[125.491,3.138]},"geometry_name":"geom","properties":{"gid":107,"volcano_code":267030,"volcano_name":"Banua Wuhu","country":"Indonesia","primary_volcano_type":"Submarine","activity_erruption":"Eruption Observed","last_known_erruption":"1919 CE","latitude":3.138,"longitude":125.491,"elevation":-5,"colour":"Green"}},{"type":"Feature","id":"volcanoes.109","geometry":{"type":"Point","coordinates":[127.83,1.83]},"geometry_name":"geom","properties":{"gid":109,"volcano_code":268001,"volcano_name":"Tarakan","country":"Indonesia","primary_volcano_type":"Pyroclastic cone(s)","activity_erruption":"Evidence Credible","last_known_erruption":"Unknown","latitude":1.83,"longitude":127.83,"elevation":318,"colour":"Green"}},{"type":"Feature","id":"volcanoes.111","geometry":{"type":"Point","coordinates":[127.67,1.63]},"geometry_name":"geom","properties":{"gid":111,"volcano_code":268020,"volcano_name":"Tobaru","country":"Indonesia","primary_volcano_type":"Stratovolcano","activity_erruption":"Evidence Credible","last_known_erruption":"Unknown","latitude":1.63,"longitude":127.67,"elevation":1035,"colour":"Green"}},{"type":"Feature","id":"volcanoes.113","geometry":{"type":"Point","coordinates":[127.53,1.38]},"geometry_name":"geom","properties":{"gid":113,"volcano_code":268040,"volcano_name":"Gamkonora","country":"Indonesia","primary_volcano_type":"Stratovolcano","activity_erruption":"Eruption Observed","last_known_erruption":"2007 CE","latitude":1.38,"longitude":127.53,"elevation":1635,"colour":"Green"}},{"type":"Feature","id":"volcanoes.114","geometry":{"type":"Point","coordinates":[127.47,1.25]},"geometry_name":"geom","properties":{"gid":114,"volcano_code":268050,"volcano_name":"Todoko-Ranu","country":"Indonesia","primary_volcano_type":"Caldera(s)","activity_erruption":"Evidence Credible","last_known_erruption":"Unknown","latitude":1.25,"longitude":127.47,"elevation":979,"colour":"Green"}},{"type":"Feature","id":"volcanoes.115","geometry":{"type":"Point","coordinates":[127.439,1.08]},"geometry_name":"geom","properties":{"gid":115,"volcano_code":268051,"volcano_name":"Jailolo","country":"Indonesia","primary_volcano_type":"Stratovolcano","activity_erruption":"Evidence Credible","last_known_erruption":"Unknown","latitude":1.08,"longitude":127.439,"elevation":993,"colour":"Green"}},{"type":"Feature","id":"volcanoes.116","geometry":{"type":"Point","coordinates":[127.32,0.9]},"geometry_name":"geom","properties":{"gid":116,"volcano_code":268052,"volcano_name":"Hiri","country":"Indonesia","primary_volcano_type":"Stratovolcano","activity_erruption":"Evidence Credible","last_known_erruption":"Unknown","latitude":0.9,"longitude":127.32,"elevation":630,"colour":"Green"}},{"type":"Feature","id":"volcanoes.117","geometry":{"type":"Point","coordinates":[127.33,0.8]},"geometry_name":"geom","properties":{"gid":117,"volcano_code":268060,"volcano_name":"Gamalama","country":"Indonesia","primary_volcano_type":"Stratovolcano(es)","activity_erruption":"Eruption Observed","last_known_erruption":"2018 CE","latitude":0.8,"longitude":127.33,"elevation":1715,"colour":"Green"}},{"type":"Feature","id":"volcanoes.118","geometry":{"type":"Point","coordinates":[127.4,0.658]},"geometry_name":"geom","properties":{"gid":118,"volcano_code":268061,"volcano_name":"Tidore","country":"Indonesia","primary_volcano_type":"Stratovolcano","activity_erruption":"Evidence Credible","last_known_erruption":"Unknown","latitude":0.658,"longitude":127.4,"elevation":1730,"colour":"Green"}},{"type":"Feature","id":"volcanoes.119","geometry":{"type":"Point","coordinates":[127.4,0.57]},"geometry_name":"geom","properties":{"gid":119,"volcano_code":268062,"volcano_name":"Mare","country":"Indonesia","primary_volcano_type":"Stratovolcano","activity_erruption":"Evidence Credible","last_known_erruption":"Unknown","latitude":0.57,"longitude":127.4,"elevation":308,"colour":"Green"}},{"type":"Feature","id":"volcanoes.120","geometry":{"type":"Point","coordinates":[127.411,0.454]},"geometry_name":"geom","properties":{"gid":120,"volcano_code":268063,"volcano_name":"Moti","country":"Indonesia","primary_volcano_type":"Stratovolcano","activity_erruption":"Evidence Credible","last_known_erruption":"Unknown","latitude":0.454,"longitude":127.411,"elevation":927,"colour":"Green"}},{"type":"Feature","id":"volcanoes.121","geometry":{"type":"Point","coordinates":[127.4,0.32]},"geometry_name":"geom","properties":{"gid":121,"volcano_code":268070,"volcano_name":"Makian","country":"Indonesia","primary_volcano_type":"Stratovolcano","activity_erruption":"Eruption Observed","last_known_erruption":"1988 CE","latitude":0.32,"longitude":127.4,"elevation":1357,"colour":"Green"}},{"type":"Feature","id":"volcanoes.122","geometry":{"type":"Point","coordinates":[127.42,0.07]},"geometry_name":"geom","properties":{"gid":122,"volcano_code":268071,"volcano_name":"Tigalalu","country":"Indonesia","primary_volcano_type":"Stratovolcano","activity_erruption":"Evidence Credible","last_known_erruption":"Unknown","latitude":0.07,"longitude":127.42,"elevation":422,"colour":"Green"}},{"type":"Feature","id":"volcanoes.123","geometry":{"type":"Point","coordinates":[127.48,-0.53]},"geometry_name":"geom","properties":{"gid":123,"volcano_code":268072,"volcano_name":"Amasing","country":"Indonesia","primary_volcano_type":"Stratovolcano(es)","activity_erruption":"Evidence Credible","last_known_erruption":"Unknown","latitude":-0.53,"longitude":127.48,"elevation":1030,"colour":"Green"}},{"type":"Feature","id":"volcanoes.124","geometry":{"type":"Point","coordinates":[127.725,-0.761]},"geometry_name":"geom","properties":{"gid":124,"volcano_code":268073,"volcano_name":"Bibinoi","country":"Indonesia","primary_volcano_type":"Stratovolcano(es)","activity_erruption":"Evidence Credible","last_known_erruption":"Unknown","latitude":-0.761,"longitude":127.725,"elevation":932,"colour":"Green"}},{"type":"Feature","id":"volcanoes.44","geometry":{"type":"Point","coordinates":[109.879,-7.2]},"geometry_name":"geom","properties":{"gid":44,"volcano_code":263200,"volcano_name":"Dieng Volcanic Complex","country":"Indonesia","primary_volcano_type":"Complex","activity_erruption":"Eruption Observed","last_known_erruption":"2018 CE","latitude":-7.2,"longitude":109.879,"elevation":2565,"colour":"Green"}},{"type":"Feature","id":"volcanoes.102","geometry":{"type":"Point","coordinates":[124.865,1.352]},"geometry_name":"geom","properties":{"gid":102,"volcano_code":266110,"volcano_name":"Mahawu","country":"Indonesia","primary_volcano_type":"Stratovolcano","activity_erruption":"Eruption Observed","last_known_erruption":"1977 CE","latitude":1.352,"longitude":124.865,"elevation":1299,"colour":"Green"}},{"type":"Feature","id":"volcanoes.108","geometry":{"type":"Point","coordinates":[125.447,3.689]},"geometry_name":"geom","properties":{"gid":108,"volcano_code":267040,"volcano_name":"Awu","country":"Indonesia","primary_volcano_type":"Stratovolcano","activity_erruption":"Eruption Observed","last_known_erruption":"2004 CE","latitude":3.689,"longitude":125.447,"elevation":1318,"colour":"Green"}},{"type":"Feature","id":"volcanoes.112","geometry":{"type":"Point","coordinates":[127.63,1.488]},"geometry_name":"geom","properties":{"gid":112,"volcano_code":268030,"volcano_name":"Ibu","country":"Indonesia","primary_volcano_type":"Stratovolcano","activity_erruption":"Eruption Observed","last_known_erruption":"2020 CE","latitude":1.488,"longitude":127.63,"elevation":1325,"colour":"Orange"}},{"type":"Feature","id":"volcanoes.96","geometry":{"type":"Point","coordinates":[121.601,-0.162]},"geometry_name":"geom","properties":{"gid":96,"volcano_code":266010,"volcano_name":"Colo","country":"Indonesia","primary_volcano_type":"Stratovolcano","activity_erruption":"Eruption Observed","last_known_erruption":"1983 CE","latitude":-0.162,"longitude":121.601,"elevation":404,"colour":"Green"}},{"type":"Feature","id":"volcanoes.95","geometry":{"type":"Point","coordinates":[129.881,-4.523]},"geometry_name":"geom","properties":{"gid":95,"volcano_code":265090,"volcano_name":"Banda Api","country":"Indonesia","primary_volcano_type":"Caldera","activity_erruption":"Eruption Observed","last_known_erruption":"1988 CE","latitude":-4.523,"longitude":129.881,"elevation":596,"colour":"Green"}},{"type":"Feature","id":"volcanoes.110","geometry":{"type":"Point","coordinates":[127.894,1.693]},"geometry_name":"geom","properties":{"gid":110,"volcano_code":268010,"volcano_name":"Dukono","country":"Indonesia","primary_volcano_type":"Complex","activity_erruption":"Eruption Observed","last_known_erruption":"2020 CE","latitude":1.693,"longitude":127.894,"elevation":1229,"colour":"Yellow"}}],"totalFeatures":124,"numberMatched":124,"numberReturned":124,"timeStamp":"2022-03-11T01:50:11.378Z","crs":{"type":"name","properties":{"name":"urn:ogc:def:crs:EPSG::4326"}}}